[
  {
    "id": "seoul-central-mosque",
    "name": "Seoul Central Mosque",
    "province": "seoul",
    "tags": [
      "prayer",
      "halal food nearby",
      "women's area",
      "Quran classes",
      "parking"
    ],
    "description": "The main and largest mosque in South Korea, located in Itaewon.",
    "address": {
      "street": "39 Usadan-ro 10-gil, Yongsan-gu",
      "city": "Seoul",
      "postalCode": "04408",
      "district": "Yongsan-gu",
      "latitude": 37.541,
      "longitude": 126.986
    },
    "contact": {
      "phone": "+82-2-793-6908",
      "email": "info@koreaislam.org",
      "website": "https://www.koreaislam.org/"
    },
    "facilities": {
      "prayerRooms": true,
      "wuduFacilities": true,
      "parking": true,
      "womenArea": true,
      "library": false,
      "halalRestaurantNearby": true
    },
    "services": [
      "Jummah (Friday) Prayer",
      "Daily Prayers",
      "Quran Classes",
      "Islamic Lectures",
      "Ramadan Iftar",
      "Marriage Services",
      "Funeral Services"
    ],
    "languagesSpoken": ["Korean", "English", "Arabic", "Urdu"],
    "imam": {
      "name": "Imam Abdul Rahman Lee",
      "languages": ["Korean", "Arabic", "English"]
    },
    "images": [
      "https://example.com/images/seoul-mosque1.jpg",
      "https://example.com/images/seoul-mosque2.jpg"
    ],
    "socialMedia": {
      "facebook": "https://facebook.com/seoulmosque",
      "instagram": "https://instagram.com/seoulcentralmosque"
    },
    "verified": true,
    "lastUpdated": "2025-05-19T15:00:00Z"
  },
  {
    "id": "busan-mosque",
    "name": "Busan Mosque",
    "province": "busan",
    "description": "Serving the Muslim community in South Korea’s largest port city.",
    "address": {
      "street": "30-1 Namsan-dong, Geumjeong-gu",
      "city": "Busan",
      "postalCode": "46222",
      "district": "Geumjeong-gu",
      "latitude": 35.2325,
      "longitude": 129.0892
    },
    "contact": {
      "phone": "+82-51-518-9991",
      "email": "busanmosque@koreaislam.org",
      "website": "https://www.koreaislam.org/"
    },
    "facilities": {
      "prayerRooms": true,
      "wuduFacilities": true,
      "parking": true,
      "womenArea": true,
      "library": false,
      "halalRestaurantNearby": true
    },
    "services": [
      "Jummah (Friday) Prayer",
      "Daily Prayers",
      "Islamic Lectures",
      "Ramadan Iftar"
    ],
    "languagesSpoken": ["Korean", "English", "Arabic", "Urdu"],
    "imam": {
      "name": "Imam Muhammad Yunus",
      "languages": ["Korean", "Arabic", "English"]
    },
    "images": [
      "https://example.com/images/busan-mosque1.jpg",
      "https://example.com/images/busan-mosque2.jpg"
    ],
    "socialMedia": {
      "facebook": "https://facebook.com/busanmosque",
      "instagram": "https://instagram.com/busanmosque"
    },
    "verified": true,
    "lastUpdated": "2025-05-20T12:00:00Z"
  },
  {
    "id": "incheon-masjid",
    "name": "Incheon Masjid",
    "province": "incheon",
    "description": "Welcomes travelers and locals near the international airport.",
    "address": {
      "street": "305-8 Unseo-dong, Jung-gu",
      "city": "Incheon",
      "postalCode": "22371",
      "district": "Jung-gu",
      "latitude": 37.4939,
      "longitude": 126.4931
    },
    "contact": {
      "phone": "+82-32-743-1234",
      "email": "incheonmasjid@koreaislam.org",
      "website": "https://www.koreaislam.org/"
    },
    "facilities": {
      "prayerRooms": true,
      "wuduFacilities": true,
      "parking": false,
      "womenArea": true,
      "library": false,
      "halalRestaurantNearby": true
    },
    "services": [
      "Jummah (Friday) Prayer",
      "Daily Prayers",
      "Ramadan Iftar",
      "Traveler Assistance"
    ],
    "languagesSpoken": ["Korean", "English", "Arabic"],
    "imam": {
      "name": "Imam Farooq Khan",
      "languages": ["English", "Arabic", "Korean"]
    },
    "images": [
      "https://example.com/images/incheon-masjid1.jpg",
      "https://example.com/images/incheon-masjid2.jpg"
    ],
    "socialMedia": {
      "facebook": "https://facebook.com/incheonmasjid",
      "instagram": "https://instagram.com/incheonmasjid"
    },
    "verified": true,
    "lastUpdated": "2025-05-20T12:00:00Z"
  },
  {
    "id": "daegu-islamic-center",
    "name": "Daegu Islamic Center",
    "province": "daegu",
    "description": "A hub for Islamic learning and prayer in the southeastern region.",
    "address": {
      "street": "19-2 Daemyeong-ro 12-gil, Nam-gu",
      "city": "Daegu",
      "postalCode": "42476",
      "district": "Nam-gu",
      "latitude": 35.8418,
      "longitude": 128.5937
    },
    "contact": {
      "phone": "+82-53-627-4747",
      "email": "daeguislamiccenter@koreaislam.org",
      "website": "https://www.koreaislam.org/"
    },
    "facilities": {
      "prayerRooms": true,
      "wuduFacilities": true,
      "parking": true,
      "womenArea": true,
      "library": true,
      "halalRestaurantNearby": true
    },
    "services": [
      "Jummah (Friday) Prayer",
      "Daily Prayers",
      "Quran Classes",
      "Islamic Lectures",
      "Community Gatherings",
      "Ramadan Iftar"
    ],
    "languagesSpoken": ["Korean", "English", "Arabic", "Bengali"],
    "imam": {
      "name": "Imam Hassan Uddin",
      "languages": ["Arabic", "Bengali", "English", "Korean"]
    },
    "images": [
      "https://example.com/images/daegu-mosque1.jpg",
      "https://example.com/images/daegu-mosque2.jpg"
    ],
    "socialMedia": {
      "facebook": "https://facebook.com/daeguislamiccenter",
      "instagram": "https://instagram.com/daeguislamiccenter"
    },
    "verified": true,
    "lastUpdated": "2025-05-20T12:00:00Z"
  },
  {
    "id": "gwangju-masjid",
    "name": "Gwangju Masjid",
    "province": "gwangju",
    "description": "A growing mosque catering to the Muslim community in the southwestern city.",
    "address": {
      "street": "16-1 Songjeong-dong, Gwangsan-gu",
      "city": "Gwangju",
      "postalCode": "62414",
      "district": "Gwangsan-gu",
      "latitude": 35.1398,
      "longitude": 126.7934
    },
    "contact": {
      "phone": "+82-62-952-7330",
      "email": "gwangjumasjid@koreaislam.org",
      "website": "https://www.koreaislam.org/"
    },
    "facilities": {
      "prayerRooms": true,
      "wuduFacilities": true,
      "parking": false,
      "womenArea": true,
      "library": false,
      "halalRestaurantNearby": true
    },
    "services": [
      "Jummah (Friday) Prayer",
      "Daily Prayers",
      "Quran Study Circles",
      "Community Events",
      "Ramadan Iftar"
    ],
    "languagesSpoken": ["Korean", "English", "Arabic"],
    "imam": {
      "name": "Imam Mohammad Anwar",
      "languages": ["Arabic", "English", "Korean"]
    },
    "images": [
      "https://example.com/images/gwangju-mosque1.jpg",
      "https://example.com/images/gwangju-mosque2.jpg"
    ],
    "socialMedia": {
      "facebook": "https://facebook.com/gwangjumasjid",
      "instagram": "https://instagram.com/gwangjumasjid"
    },
    "verified": true,
    "lastUpdated": "2025-05-20T13:00:00Z"
  },
  {
    "id": "daejeon-mosque",
    "name": "Daejeon Mosque",
    "province": "daejeon",
    "description": "Located in the heart of the city, providing space for prayer and community events.",
    "address": {
      "street": "46-7 Munhwa-ro, Jung-gu",
      "city": "Daejeon",
      "postalCode": "34920",
      "district": "Jung-gu",
      "latitude": 36.3274,
      "longitude": 127.4277
    },
    "contact": {
      "phone": "+82-42-256-5753",
      "email": "daejeonmasjid@koreaislam.org",
      "website": "https://www.koreaislam.org/"
    },
    "facilities": {
      "prayerRooms": true,
      "wuduFacilities": true,
      "parking": true,
      "womenArea": true,
      "library": false,
      "halalRestaurantNearby": true
    },
    "services": [
      "Jummah (Friday) Prayer",
      "Daily Prayers",
      "Islamic Classes",
      "Community Gatherings",
      "Ramadan Iftar"
    ],
    "languagesSpoken": ["Korean", "English", "Arabic"],
    "imam": {
      "name": "Imam Tariq Mahmood",
      "languages": ["English", "Urdu", "Korean"]
    },
    "images": [
      "https://example.com/images/daejeon-mosque1.jpg",
      "https://example.com/images/daejeon-mosque2.jpg"
    ],
    "socialMedia": {
      "facebook": "https://facebook.com/daejeonmosque",
      "instagram": "https://instagram.com/daejeonmasjid"
    },
    "verified": true,
    "lastUpdated": "2025-05-20T13:30:00Z"
  },
  {
    "id": "ulsan-islamic-center",
    "name": "Ulsan Islamic Center",
    "province": "ulsan",
    "description": "Serving the Muslim community in South Korea’s industrial hub.",
    "address": {
      "street": "53-1 Namseo-ro, Nam-gu",
      "city": "Ulsan",
      "postalCode": "44716",
      "district": "Nam-gu",
      "latitude": 35.5384,
      "longitude": 129.3114
    },
    "contact": {
      "phone": "+82-52-227-3266",
      "email": "ulsanmasjid@koreaislam.org",
      "website": "https://www.koreaislam.org/"
    },
    "facilities": {
      "prayerRooms": true,
      "wuduFacilities": true,
      "parking": true,
      "womenArea": true,
      "library": false,
      "halalRestaurantNearby": true
    },
    "services": [
      "Jummah (Friday) Prayer",
      "Daily Prayers",
      "Islamic Education",
      "Community Events",
      "Ramadan Iftar"
    ],
    "languagesSpoken": ["Korean", "English", "Arabic"],
    "imam": {
      "name": "Imam Muhammad Fahad",
      "languages": ["Arabic", "English", "Korean"]
    },
    "images": [
      "https://example.com/images/ulsan-mosque1.jpg",
      "https://example.com/images/ulsan-mosque2.jpg"
    ],
    "socialMedia": {
      "facebook": "https://facebook.com/ulsanislamiccenter",
      "instagram": "https://instagram.com/ulsanmasjid"
    },
    "verified": true,
    "lastUpdated": "2025-05-20T14:00:00Z"
  },
  {
    "id": "sejong-masjid",
    "name": "Sejong Masjid",
    "province": "sejong",
    "description": "A mosque in the administrative capital of South Korea, facilitating prayer and cultural exchange.",
    "address": {
      "street": "1260-3 Jochiwon-eup, Sejong City",
      "city": "Sejong",
      "postalCode": "30015",
      "district": "Jochiwon-eup",
      "latitude": 36.5947,
      "longitude": 127.2964
    },
    "contact": {
      "phone": "+82-44-865-1100",
      "email": "sejongmasjid@koreaislam.org",
      "website": "https://www.koreaislam.org/"
    },
    "facilities": {
      "prayerRooms": true,
      "wuduFacilities": true,
      "parking": true,
      "womenArea": true,
      "library": false,
      "halalRestaurantNearby": true
    },
    "services": [
      "Jummah (Friday) Prayer",
      "Daily Prayers",
      "Cultural Events",
      "Islamic Studies",
      "Community Gatherings"
    ],
    "languagesSpoken": ["Korean", "English", "Arabic"],
    "imam": {
      "name": "Imam Ismail Hossain",
      "languages": ["English", "Korean", "Arabic"]
    },
    "images": [
      "https://example.com/images/sejong-mosque1.jpg",
      "https://example.com/images/sejong-mosque2.jpg"
    ],
    "socialMedia": {
      "facebook": "https://facebook.com/sejongmasjid",
      "instagram": "https://instagram.com/sejongmasjid"
    },
    "verified": true,
    "lastUpdated": "2025-05-20T15:00:00Z"
  },
  {
    "id": "jeju-island-mosque",
    "name": "Jeju Island Mosque",
    "province": "jeju",
    "description": "The only mosque on the beautiful island of Jeju, welcoming both locals and tourists.",
    "address": {
      "street": "123 Jeju-daero, Jeju City",
      "city": "Jeju",
      "postalCode": "63100",
      "district": "Jeju-si",
      "latitude": 33.4996,
      "longitude": 126.5312
    },
    "contact": {
      "phone": "+82-64-123-4567",
      "email": "jejumosque@koreaislam.org",
      "website": "https://www.koreaislam.org/"
    },
    "facilities": {
      "prayerRooms": true,
      "wuduFacilities": true,
      "parking": false,
      "womenArea": true,
      "library": false,
      "halalRestaurantNearby": true
    },
    "services": [
      "Jummah (Friday) Prayer",
      "Daily Prayers",
      "Tourist Assistance",
      "Islamic Information",
      "Community Events"
    ],
    "languagesSpoken": ["Korean", "English", "Arabic"],
    "imam": {
      "name": "Imam Yusuf Khan",
      "languages": ["English", "Arabic", "Korean"]
    },
    "images": [
      "https://example.com/images/jeju-mosque1.jpg",
      "https://example.com/images/jeju-mosque2.jpg"
    ],
    "socialMedia": {
      "facebook": "https://facebook.com/jejumosque",
      "instagram": "https://instagram.com/jeju.island.mosque"
    },
    "verified": true,
    "lastUpdated": "2025-05-20T15:00:00Z"
  },
  {
    "id": "gyeonggi-masjid",
    "name": "Gyeonggi Masjid",
    "province": "gyeonggi",
    "description": "Serving the greater Seoul area, catering to the diverse Muslim community in Gyeonggi.",
    "address": {
      "street": "45 Gyeonggi-daero, Suwon-si",
      "city": "Suwon",
      "postalCode": "16499",
      "district": "Suwon-si",
      "latitude": 37.2636,
      "longitude": 127.0286
    },
    "contact": {
      "phone": "+82-31-123-4567",
      "email": "info@gyeonggimasjid.org",
      "website": "https://www.gyeonggimasjid.org/"
    },
    "facilities": {
      "prayerRooms": true,
      "wuduFacilities": true,
      "parking": true,
      "womenArea": true,
      "library": true,
      "halalRestaurantNearby": true
    },
    "services": [
      "Jummah (Friday) Prayer",
      "Daily Prayers",
      "Quran Classes",
      "Islamic Lectures",
      "Community Gatherings"
    ],
    "languagesSpoken": ["Korean", "English", "Arabic", "Urdu"],
    "imam": {
      "name": "Imam Ahmed Kim",
      "languages": ["Korean", "Arabic", "English"]
    },
    "images": [
      "https://example.com/images/gyeonggi-masjid1.jpg",
      "https://example.com/images/gyeonggi-masjid2.jpg"
    ],
    "socialMedia": {
      "facebook": "https://facebook.com/gyeonggimasjid",
      "instagram": "https://instagram.com/gyeonggimasjid"
    },
    "verified": true,
    "lastUpdated": "2025-05-20T15:00:00Z"
  },
  {
    "id": "gangwon-masjid",
    "name": "Gangwon Masjid",
    "province": "gangwon",
    "description": "A smaller mosque in the northeastern region of South Korea, welcoming locals and visitors.",
    "address": {
      "street": "22 Seorak-ro, Sokcho-si",
      "city": "Sokcho",
      "postalCode": "24738",
      "district": "Sokcho-si",
      "latitude": 38.2041,
      "longitude": 128.5912
    },
    "contact": {
      "phone": "+82-33-123-4567",
      "email": "info@gangwonmasjid.org",
      "website": "https://www.gangwonmasjid.org/"
    },
    "facilities": {
      "prayerRooms": true,
      "wuduFacilities": true,
      "parking": false,
      "womenArea": true,
      "library": false,
      "halalRestaurantNearby": false
    },
    "services": ["Daily Prayers", "Friday Prayer", "Community Events"],
    "languagesSpoken": ["Korean", "English"],
    "imam": {
      "name": "Imam Yusuf Lee",
      "languages": ["Korean", "English"]
    },
    "images": ["https://example.com/images/gangwon-masjid1.jpg"],
    "socialMedia": {
      "facebook": "https://facebook.com/gangwonmasjid"
    },
    "verified": false,
    "lastUpdated": "2025-05-20T15:00:00Z"
  },
  {
    "id": "chungcheongbuk-masjid",
    "name": "Chungcheongbuk Masjid",
    "province": "chungcheongbuk",
    "description": "Located in the central part of South Korea, this mosque provides prayer and community activities.",
    "address": {
      "street": "15 Cheongwon-ro, Cheongju-si",
      "city": "Cheongju",
      "postalCode": "28644",
      "district": "Cheongwon-gu",
      "latitude": 36.6424,
      "longitude": 127.4895
    },
    "contact": {
      "phone": "+82-43-123-4567",
      "email": "info@chungcheongbukmasjid.org",
      "website": "https://www.chungcheongbukmasjid.org/"
    },
    "facilities": {
      "prayerRooms": true,
      "wuduFacilities": true,
      "parking": true,
      "womenArea": true,
      "library": false,
      "halalRestaurantNearby": false
    },
    "services": [
      "Daily Prayers",
      "Friday Prayer",
      "Islamic Classes",
      "Community Events"
    ],
    "languagesSpoken": ["Korean", "English"],
    "imam": {
      "name": "Imam Muhammad Park",
      "languages": ["Korean", "English"]
    },
    "images": ["https://example.com/images/chungcheongbuk-masjid1.jpg"],
    "socialMedia": {
      "facebook": "https://facebook.com/chungcheongbukmasjid"
    },
    "verified": false,
    "lastUpdated": "2025-05-20T15:00:00Z"
  },
  {
    "id": "chungcheongnam-masjid",
    "name": "Chungcheongnam Masjid",
    "province": "chungcheongnam",
    "description": "Located in the west of South Korea, this mosque is a hub for worship and community engagement.",
    "address": {
      "street": "123 Daejeon-daero, Seosan-si",
      "city": "Seosan",
      "postalCode": "31900",
      "district": "Seosan",
      "latitude": 36.7765,
      "longitude": 126.45
    },
    "contact": {
      "phone": "+82-41-987-6543",
      "email": "info@chungcheongnammasjid.org",
      "website": "https://www.chungcheongnammasjid.org/"
    },
    "facilities": {
      "prayerRooms": true,
      "wuduFacilities": true,
      "parking": true,
      "womenArea": true,
      "library": false,
      "halalRestaurantNearby": false
    },
    "services": [
      "Daily Prayers",
      "Friday Prayer",
      "Islamic Education",
      "Community Gatherings"
    ],
    "languagesSpoken": ["Korean", "English"],
    "imam": {
      "name": "Imam Hasan Kim",
      "languages": ["Korean", "English"]
    },
    "images": ["https://example.com/images/chungcheongnam-masjid1.jpg"],
    "socialMedia": {
      "facebook": "https://facebook.com/chungcheongnammasjid"
    },
    "verified": false,
    "lastUpdated": "2025-05-20T15:00:00Z"
  },
  {
    "id": "jeollabuk-masjid",
    "name": "Jeollabuk Masjid",
    "province": "jeollabuk",
    "description": "Located in the Jeolla region, providing spiritual services to the local Muslim population.",
    "address": {
      "street": "45 Jeonju-ro, Wansan-gu",
      "city": "Jeonju",
      "postalCode": "560-123",
      "district": "Wansan-gu",
      "latitude": 35.8242,
      "longitude": 127.148
    },
    "contact": {
      "phone": "+82-63-123-4567",
      "email": "info@jeollabukmasjid.org",
      "website": "https://www.jeollabukmasjid.org/"
    },
    "facilities": {
      "prayerRooms": true,
      "wuduFacilities": true,
      "parking": true,
      "womenArea": true,
      "library": false,
      "halalRestaurantNearby": false
    },
    "services": [
      "Daily Prayers",
      "Friday Prayer",
      "Quran Classes",
      "Community Events"
    ],
    "languagesSpoken": ["Korean", "English"],
    "imam": {
      "name": "Imam Yusuf Park",
      "languages": ["Korean", "English", "Arabic"]
    },
    "images": ["https://example.com/images/jeollabuk-masjid1.jpg"],
    "socialMedia": {
      "facebook": "https://facebook.com/jeollabukmasjid"
    },
    "verified": false,
    "lastUpdated": "2025-05-20T15:00:00Z"
  },
  {
    "id": "jeollanam-masjid",
    "name": "Jeollanam Masjid",
    "province": "jeollanam",
    "description": "Serving the southern part of the country, offering prayer space and community activities.",
    "address": {
      "street": "12 Suncheon-ro, Suncheon-si",
      "city": "Suncheon",
      "postalCode": "57922",
      "district": "Suncheon-si",
      "latitude": 34.9497,
      "longitude": 127.4875
    },
    "contact": {
      "phone": "+82-61-123-4567",
      "email": "info@jeollanammasjid.org",
      "website": "https://www.jeollanammasjid.org/"
    },
    "facilities": {
      "prayerRooms": true,
      "wuduFacilities": true,
      "parking": true,
      "womenArea": true,
      "library": false,
      "halalRestaurantNearby": false
    },
    "services": [
      "Daily Prayers",
      "Friday Prayer",
      "Islamic Classes",
      "Community Gatherings"
    ],
    "languagesSpoken": ["Korean", "English"],
    "imam": {
      "name": "Imam Ahmed Kim",
      "languages": ["Korean", "English", "Arabic"]
    },
    "images": ["https://example.com/images/jeollanam-masjid1.jpg"],
    "socialMedia": {
      "facebook": "https://facebook.com/jeollanammasjid"
    },
    "verified": false,
    "lastUpdated": "2025-05-20T15:00:00Z"
  },
  {
    "id": "gyeongsangbuk-masjid",
    "name": "Gyeongsangbuk Masjid",
    "province": "gyeongsangbuk",
    "description": "Located in the northeastern region, providing prayer services for the local Muslim community.",
    "address": {
      "street": "45 Daegu-ro, Pohang-si",
      "city": "Pohang",
      "postalCode": "37660",
      "district": "Pohang-si",
      "latitude": 36.019,
      "longitude": 129.3435
    },
    "contact": {
      "phone": "+82-54-123-4567",
      "email": "info@gyeongsangbukmasjid.org",
      "website": "https://www.gyeongsangbukmasjid.org/"
    },
    "facilities": {
      "prayerRooms": true,
      "wuduFacilities": true,
      "parking": true,
      "womenArea": true,
      "library": false,
      "halalRestaurantNearby": false
    },
    "services": [
      "Daily Prayers",
      "Friday Prayer",
      "Islamic Study Groups",
      "Community Support"
    ],
    "languagesSpoken": ["Korean", "English"],
    "imam": {
      "name": "Imam Yusuf Park",
      "languages": ["Korean", "Arabic", "English"]
    },
    "images": ["https://example.com/images/gyeongsangbuk-masjid1.jpg"],
    "socialMedia": {
      "facebook": "https://facebook.com/gyeongsangbukmasjid"
    },
    "verified": false,
    "lastUpdated": "2025-05-20T15:00:00Z"
  },
  {
    "id": "gyeongsangnam-masjid",
    "name": "Gyeongsangnam Masjid",
    "province": "gyeongsangnam",
    "description": "A mosque serving the southern region of South Korea, helping foster a sense of community.",
    "address": {
      "street": "88 Jungang-ro, Changwon-si",
      "city": "Changwon",
      "postalCode": "51439",
      "district": "Changwon-si",
      "latitude": 35.2284,
      "longitude": 128.6811
    },
    "contact": {
      "phone": "+82-55-123-4567",
      "email": "info@gyeongsangnammasjid.org",
      "website": "https://www.gyeongsangnammasjid.org/"
    },
    "facilities": {
      "prayerRooms": true,
      "wuduFacilities": true,
      "parking": true,
      "womenArea": true,
      "library": false,
      "halalRestaurantNearby": true
    },
    "services": [
      "Daily Prayers",
      "Friday Prayer",
      "Quran Classes",
      "Community Events"
    ],
    "languagesSpoken": ["Korean", "English"],
    "imam": {
      "name": "Imam Ahmed Kim",
      "languages": ["Korean", "Arabic", "English"]
    },
    "images": ["https://example.com/images/gyeongsangnam-masjid1.jpg"],
    "socialMedia": {
      "facebook": "https://facebook.com/gyeongsangnammasjid"
    },
    "verified": false,
    "lastUpdated": "2025-05-20T15:00:00Z"
  }
]
